data/kvn/tdm_e3.kvn

CCSDS_TDM_VERS=2.0
COMMENT TDM example created by yyyyy-nnnA Nav Team (NASA/JPL)
CREATION_DATE=2005-184T20:15:00
ORIGINATOR=NASA
META_START
TIME_SYSTEM=UTC
START_TIME=2005-184T11:12:23
STOP_TIME=2005-184T13:59:43.27
PARTICIPANT_1=DSS-55
MODE=SEQUENTIAL
PARTICIPANT_2=yyyy-nnnA
PATH=1,2,1
INTEGRATION_INTERVAL=1.0
INTEGRATION_REF=MIDDLE
META_STOP
DATA_START
TRANSMIT_FREQ_1=2005-184T11:12:23 7175173383.615373
TRANSMIT_FREQ_RATE_1=2005-184T11:12:23 0.40220
TRANSMIT_FREQ_1=2005-184T11:12:24 7175173384.017573
TRANSMIT_FREQ_RATE_1=2005-184T11:12:24 0.40220
TRANSMIT_FREQ_1=2005-184T11:12:25 7175173384.419773
TRANSMIT_FREQ_RATE_1=2005-184T11:12:25 0.40220
TRANSMIT_FREQ_1=2005-184T11:12:26 7175173384.821973
TRANSMIT_FREQ_RATE_1=2005-184T11:12:26 0.40220
TRANSMIT_FREQ_1=2005-184T11:12:27 7175173385.224173
TRANSMIT_FREQ_RATE_1=2005-184T11:12:27 0.40220
TRANSMIT_FREQ_1=2005-184T11:12:28 7175173385.626373
TRANSMIT_FREQ_RATE_1=2005-184T11:12:28 0.40220
TRANSMIT_FREQ_1=2005-184T11:12:29 7175173386.028573
TRANSMIT_FREQ_RATE_1=2005-184T11:12:29 0.40220
TRANSMIT_FREQ_1=2005-184T11:12:30 7175173386.430773
TRANSMIT_FREQ_RATE_1=2005-184T11:12:30 0.40220
TRANSMIT_FREQ_1=2005-184T11:12:31 7175173386.832973
TRANSMIT_FREQ_RATE_1=2005-184T11:12:31 0.40220
TRANSMIT_FREQ_1=2005-184T11:12:32 7175173387.235173
TRANSMIT_FREQ_RATE_1=2005-184T11:12:32 0.40220
TRANSMIT_FREQ_1=2005-184T11:12:33 7175173387.637373
TRANSMIT_FREQ_RATE_1=2005-184T11:12:33 0.40220
TRANSMIT_FREQ_1=2005-184T11:12:34 7175173388.039573
TRANSMIT_FREQ_RATE_1=2005-184T11:12:34 0.40220
TRANSMIT_FREQ_1=2005-184T11:12:35 7175173388.441773
TRANSMIT_FREQ_RATE_1=2005-184T11:12:35 0.40220
TRANSMIT_FREQ_1=2005-184T11:12:36 7175173388.843973
TRANSMIT_FREQ_RATE_1=2005-184T11:12:36 0.40220
TRANSMIT_FREQ_1=2005-184T11:12:37 7175173389.246173
TRANSMIT_FREQ_RATE_1=2005-184T11:12:37 0.40220
TRANSMIT_FREQ_1=2005-184T11:12:38 7175173389.648373
TRANSMIT_FREQ_RATE_1=2005-184T11:12:38 0.40220
TRANSMIT_FREQ_1=2005-184T11:12:39 7175173390.050573
RECEIVE_FREQ_1=2005-184T13:59:27.27 8429753135.986102
RECEIVE_FREQ_1=2005-184T13:59:28.27 8429749428.196568
RECEIVE_FREQ_1=2005-184T13:59:29.27 8429749427.584727
RECEIVE_FREQ_1=2005-184T13:59:30.27 8429749427.023103
RECEIVE_FREQ_1=2005-184T13:59:31.27 8429749426.346252
RECEIVE_FREQ_1=2005-184T13:59:32.27 8429749425.738658
RECEIVE_FREQ_1=2005-184T13:59:33.27 8429749425.113143
RECEIVE_FREQ_1=2005-184T13:59:34.27 8429749424.489933
RECEIVE_FREQ_1=2005-184T13:59:35.27 8429749423.876996
RECEIVE_FREQ_1=2005-184T13:59:36.27 8429749423.325228
RECEIVE_FREQ_1=2005-184T13:59:37.27 8429749422.664049
RECEIVE_FREQ_1=2005-184T13:59:38.27 8429749422.054996
RECEIVE_FREQ_1=2005-184T13:59:39.27 8429749421.425801
RECEIVE_FREQ_1=2005-184T13:59:40.27 8429749420.824186
RECEIVE_FREQ_1=2005-184T13:59:41.27 8429749420.204178
RECEIVE_FREQ_1=2005-184T13:59:42.27 8429749419.596043
RECEIVE_FREQ_1=2005-184T13:59:43.27 8429749418.986191
DATA_STOP